[{"recordNumber": 1, "countryCode": "ET", "siteName": "FURIAA", "programme": "PAL", "latitude": 8.8827, "longtiude": 14.6869, "polarization": "HOR", "status": "Operational", "frequency": 178.0, "channel": 5, "maxERP": 5.0, "antennaHeight_AGL": 60.0, "path": "Land"}, {"recordNumber": 2, "countryCode": "ET", "siteName": "FURIAA", "programme": "PAL", "latitude": 8.8827, "longtiude": 14.6869, "polarization": "HOR", "status": "Operational", "frequency": 192.0, "channel": 7, "maxERP": 5.0, "antennaHeight_AGL": 60.0, "path": "Land"}, {"recordNumber": 3, "countryCode": "ET", "siteName": "HARAR", "programme": "PAL", "latitude": 42.1244, "longtiude": 9.2886, "polarization": "HOR", "status": "Operational", "frequency": 192.0, "channel": 7, "maxERP": 1.0, "antennaHeight_AGL": 60.0, "path": "Land"}, {"recordNumber": 4, "countryCode": "ET", "siteName": "DIREDAWA", "programme": "PAL", "latitude": 9.5875, "longtiude": 41.8344, "polarization": "HOR", "status": "Operational", "frequency": 178.0, "channel": 5, "maxERP": 0.25, "antennaHeight_AGL": 60.0, "path": "Land"}, {"recordNumber": 5, "countryCode": "ET", "siteName": "JIJIGA", "programme": "PAL", "latitude": 9.3524, "longtiude": 42.7025, "polarization": "HOR", "status": "Operational", "frequency": 192.0, "channel": 11, "maxERP": 0.2, "antennaHeight_AGL": 60.0, "path": "Land"}, {"recordNumber": 6, "countryCode": "ET", "siteName": "NAZIRETH", "programme": "PAL", "latitude": 39.2333, "longtiude": 8.5522, "polarization": "HOR", "status": "Operational", "frequency": 178.0, "channel": 11, "maxERP": 1.0, "antennaHeight_AGL": 60.0, "path": "Land"}, {"recordNumber": 7, "countryCode": "ET", "siteName": "DESSIE", "programme": "PAL", "latitude": 11.1197, "longtiude": 39.6136, "polarization": "HOR", "status": "Operational", "frequency": 220.0, "channel": 9, "maxERP": 1.0, "antennaHeight_AGL": 60.0, "path": "Land"}, {"recordNumber": 8, "countryCode": "ET", "siteName": "JIMMA", "programme": "PAL", "latitude": 7.7188, "longtiude": 36.8669, "polarization": "HOR", "status": "Operational", "frequency": 220.0, "channel": 5, "maxERP": 0.5, "antennaHeight_AGL": 60.0, "path": "Land"}, {"recordNumber": 9, "countryCode": "ET", "siteName": "NEKEMTE", "programme": "PAL", "latitude": 36.6325, "longtiude": 9.1102, "polarization": "HOR", "status": "Operational", "frequency": 206.0, "channel": 9, "maxERP": 0.5, "antennaHeight_AGL": 60.0, "path": "Land"}, {"recordNumber": 10, "countryCode": "ET", "siteName": "SHASHEMENE", "programme": "PAL", "latitude": 38.6216, "longtiude": 7.1266, "polarization": "HOR", "status": "Operational", "frequency": 206.0, "channel": 5, "maxERP": 1.0, "antennaHeight_AGL": 60.0, "path": "Land"}, {"recordNumber": 11, "countryCode": "ET", "siteName": "DILA", "programme": "PAL", "latitude": 6.4369, "longtiude": 38.3941, "polarization": "HOR", "status": "Operational", "frequency": 178.0, "channel": 11, "maxERP": 0.5, "antennaHeight_AGL": 60.0, "path": "Land"}, {"recordNumber": 12, "countryCode": "ET", "siteName": "GONDAR", "programme": "PAL", "latitude": 37.4677, "longtiude": 12.6302, "polarization": "HOR", "status": "Operational", "frequency": 178.0, "channel": 7, "maxERP": 0.5, "antennaHeight_AGL": 60.0, "path": "Land"}, {"recordNumber": 13, "countryCode": "ET", "siteName": "BAHIRDAR", "programme": "PAL", "latitude": 37.3586, "longtiude": 11.5941, "polarization": "HOR", "status": "Operational", "frequency": 192.0, "channel": 5, "maxERP": 0.4, "antennaHeight_AGL": 60.0, "path": "Land"}, {"recordNumber": 14, "countryCode": "ET", "siteName": "MEKELE", "programme": "PAL", "latitude": 13.5563, "longtiude": 39.5436, "polarization": "HOR", "status": "Operational", "frequency": 185.0, "channel": 7, "maxERP": 1.0, "antennaHeight_AGL": 60.0, "path": "Land"}, {"recordNumber": 15, "countryCode": "ET", "siteName": "AXUM", "programme": "PAL", "latitude": 14.1175, "longtiude": 38.8008, "polarization": "HOR", "status": "Operational", "frequency": 206.0, "channel": 9, "maxERP": 1.0, "antennaHeight_AGL": 60.0, "path": "Land"}, {"recordNumber": 16, "countryCode": "ET", "siteName": "ASSOSA", "programme": "PAL", "latitude": 10.0644, "longtiude": 34.5772, "polarization": "HOR", "status": "Operational", "frequency": 220.0, "channel": 11, "maxERP": 1.0, "antennaHeight_AGL": 60.0, "path": "Land"}, {"recordNumber": 17, "countryCode": "ET", "siteName": "GODE", "programme": "PAL", "latitude": 6.1025, "longtiude": 43.0144, "polarization": "HOR", "status": "Operational", "frequency": 206.0, "channel": 9, "maxERP": 1.0, "antennaHeight_AGL": 60.0, "path": "Land"}, {"recordNumber": 18, "countryCode": "ET", "siteName": "ADIREMEST", "programme": "PAL", "latitude": 13.7416, "longtiude": 37.3225, "polarization": "HOR", "status": "Operational", "frequency": 586.0, "channel": 35, "maxERP": 3.0, "antennaHeight_AGL": 100.0, "path": "Land"}, {"recordNumber": 19, "countryCode": "ET", "siteName": "ANKOBER", "programme": "PAL", "latitude": 9.688, "longtiude": 39.7341, "polarization": "HOR", "status": "Operational", "frequency": 578.0, "channel": 34, "maxERP": 3.0, "antennaHeight_AGL": 80.0, "path": "Land"}, {"recordNumber": 20, "countryCode": "ET", "siteName": "ASSOSA", "programme": "PAL", "latitude": 10.0644, "longtiude": 34.5772, "polarization": "HOR", "status": "Operational", "frequency": 786.0, "channel": 60, "maxERP": 3.0, "antennaHeight_AGL": 60.0, "path": "Land"}, {"recordNumber": 21, "countryCode": "ET", "siteName": "DEBARK", "programme": "PAL", "latitude": 13.2097, "longtiude": 37.9794, "polarization": "HOR", "status": "Operational", "frequency": 762.0, "channel": 57, "maxERP": 3.0, "antennaHeight_AGL": 80.0, "path": "Land"}, {"recordNumber": 22, "countryCode": "ET", "siteName": "DESSIE", "programme": "PAL", "latitude": 11.1197, "longtiude": 39.6136, "polarization": "HOR", "status": "Operational", "frequency": 690.0, "channel": 48, "maxERP": 3.0, "antennaHeight_AGL": 100.0, "path": "Land"}, {"recordNumber": 24, "countryCode": "ET", "siteName": "DILA", "programme": "PAL", "latitude": 6.4369, "longtiude": 38.3941, "polarization": "HOR", "status": "Operational", "frequency": 538.0, "channel": 29, "maxERP": 3.0, "antennaHeight_AGL": 100.0, "path": "Land"}, {"recordNumber": 26, "countryCode": "ET", "siteName": "KEBRIDAHAR", "programme": "PAL", "latitude": 44.268, "longtiude": 6.7408, "polarization": "HOR", "status": "Operational", "frequency": 698.0, "channel": 24, "maxERP": 3.0, "antennaHeight_AGL": 100.0, "path": "Land"}, {"recordNumber": 27, "countryCode": "ET", "siteName": "FICHE", "programme": "PAL", "latitude": 9.7788, "longtiude": 38.6383, "polarization": "HOR", "status": "Operational", "frequency": 706.0, "channel": 50, "maxERP": 3.0, "antennaHeight_AGL": 100.0, "path": "Land"}, {"recordNumber": 28, "countryCode": "ET", "siteName": "FURI", "programme": "PAL", "latitude": 8.8827, "longtiude": 38.6869, "polarization": "HOR", "status": "Operational", "frequency": 642.0, "channel": 42, "maxERP": 3.0, "antennaHeight_AGL": 80.0, "path": "Land"}, {"recordNumber": 29, "countryCode": "ET", "siteName": "GORE", "programme": "PAL", "latitude": 8.1516, "longtiude": 35.5344, "polarization": "HOR", "status": "Operational", "frequency": 706.0, "channel": 50, "maxERP": 3.0, "antennaHeight_AGL": 100.0, "path": "Land"}, {"recordNumber": 30, "countryCode": "ET", "siteName": "JIJIGA", "programme": "PAL", "latitude": 9.3524, "longtiude": 42.7025, "polarization": "HOR", "status": "Operational", "frequency": 650.0, "channel": 43, "maxERP": 3.0, "antennaHeight_AGL": 80.0, "path": "Land"}, {"recordNumber": 31, "countryCode": "ET", "siteName": "JIMMA", "programme": "PAL", "latitude": 7.7188, "longtiude": 36.8669, "polarization": "HOR", "status": "Operational", "frequency": 666.0, "channel": 45, "maxERP": 3.0, "antennaHeight_AGL": 80.0, "path": "Land"}, {"recordNumber": 32, "countryCode": "ET", "siteName": "JINKA", "programme": "PAL", "latitude": 5.7013, "longtiude": 36.6844, "polarization": "HOR", "status": "Operational", "frequency": 674.0, "channel": 46, "maxERP": 3.0, "antennaHeight_AGL": 80.0, "path": "Land"}, {"recordNumber": 33, "countryCode": "ET", "siteName": "KUNI", "programme": "PAL", "latitude": 8.9997, "longtiude": 40.8655, "polarization": "HOR", "status": "Operational", "frequency": 546.0, "channel": 35, "maxERP": 3.0, "antennaHeight_AGL": 60.0, "path": "Land"}, {"recordNumber": 34, "countryCode": "ET", "siteName": "MAICHEW", "programme": "PAL", "latitude": 12.833, "longtiude": 39.5627, "polarization": "HOR", "status": "Operational", "frequency": 738.0, "channel": 54, "maxERP": 3.0, "antennaHeight_AGL": 100.0, "path": "Land"}, {"recordNumber": 35, "countryCode": "ET", "siteName": "NEFASMEWCHA", "programme": "PAL", "latitude": 11.7019, "longtiude": 38.3902, "polarization": "HOR", "status": "Operational", "frequency": 474.0, "channel": 21, "maxERP": 3.0, "antennaHeight_AGL": 100.0, "path": "Land"}, {"recordNumber": 36, "countryCode": "ET", "siteName": "SHEBEL", "programme": "PAL", "latitude": 8.4547, "longtiude": 34.5877, "polarization": "HOR", "status": "Operational", "frequency": 530.0, "channel": 28, "maxERP": 3.0, "antennaHeight_AGL": 80.0, "path": "Land"}, {"recordNumber": 37, "countryCode": "ET", "siteName": "TENDAHO", "programme": "PAL", "latitude": 11.6719, "longtiude": 40.9416, "polarization": "HOR", "status": "Operational", "frequency": 650.0, "channel": 43, "maxERP": 3.0, "antennaHeight_AGL": 60.0, "path": "Land"}, {"recordNumber": 38, "countryCode": "ET", "siteName": "WELDIA", "programme": "PAL", "latitude": 11.8538, "longtiude": 39.6094, "polarization": "HOR", "status": "Operational", "frequency": 506.0, "channel": 25, "maxERP": 3.0, "antennaHeight_AGL": 60.0, "path": "Land"}, {"recordNumber": 39, "countryCode": "ET", "siteName": "NEKEMTE", "programme": "PAL", "latitude": 38.6325, "longtiude": 9.1102, "polarization": "HOR", "status": "Operational", "frequency": 610.0, "channel": 38, "maxERP": 3.0, "antennaHeight_AGL": 100.0, "path": "Land"}, {"recordNumber": 40, "countryCode": "ET", "siteName": "GODE", "programme": "PAL", "latitude": 6.1025, "longtiude": 43.0144, "polarization": "HOR", "status": "Operational", "frequency": 530.0, "channel": 28, "maxERP": 3.0, "antennaHeight_AGL": 60.0, "path": "Land"}, {"recordNumber": 41, "countryCode": "ET", "siteName": "MEKELE", "programme": "PAL", "latitude": 13.5563, "longtiude": 39.5436, "polarization": "HOR", "status": "Operational", "frequency": 738.0, "channel": 54, "maxERP": 3.0, "antennaHeight_AGL": 100.0, "path": "Land"}, {"recordNumber": 42, "countryCode": "ET", "siteName": "AXUM", "programme": "PAL", "latitude": 14.1175, "longtiude": 38.8008, "polarization": "HOR", "status": "Operational", "frequency": 714.0, "channel": 51, "maxERP": 3.0, "antennaHeight_AGL": 100.0, "path": "Land"}, {"recordNumber": 43, "countryCode": "ET", "siteName": "DIREDAWA", "programme": "PAL", "latitude": 9.5875, "longtiude": 41.8344, "polarization": "HOR", "status": "Operational", "frequency": 642.0, "channel": 42, "maxERP": 3.0, "antennaHeight_AGL": 60.0, "path": "Land"}, {"recordNumber": 44, "countryCode": "ET", "siteName": "MEGA", "programme": "PAL", "latitude": 4.093, "longtiude": 38.323, "polarization": "HOR", "status": "Operational", "frequency": 730.0, "channel": 53, "maxERP": 3.0, "antennaHeight_AGL": 100.0, "path": "Land"}, {"recordNumber": 45, "countryCode": "ET", "siteName": "ChokeTerara", "programme": "PAL", "latitude": 10.6486, "longtiude": 37.8397, "polarization": "HOR", "status": "Operational", "frequency": 562.0, "channel": 32, "maxERP": 3.0, "antennaHeight_AGL": 80.0, "path": "Land"}, {"recordNumber": 46, "countryCode": "ET", "siteName": "ABIYADI", "programme": "PAL", "latitude": 13.6269, "longtiude": 38.9897, "polarization": "HOR", "status": "Operational", "frequency": 498.0, "channel": 24, "maxERP": 3.0, "antennaHeight_AGL": 60.0, "path": "Land"}, {"recordNumber": 47, "countryCode": "ET", "siteName": "AMENTILA", "programme": "PAL", "latitude": 39.7077, "longtiude": 13.3644, "polarization": "HOR", "status": "Operational", "frequency": 626.0, "channel": 40, "maxERP": 3.0, "antennaHeight_AGL": 80.0, "path": "Land"}, {"recordNumber": 48, "countryCode": "ET", "siteName": "DERBA", "programme": "PAL", "latitude": 37.8394, "longtiude": 5.8225, "polarization": "HOR", "status": "Operational", "frequency": 578.0, "channel": 34, "maxERP": 3.0, "antennaHeight_AGL": 80.0, "path": "Land"}, {"recordNumber": 49, "countryCode": "ET", "siteName": "WARDER", "programme": "PAL", "latitude": 45.3447, "longtiude": 6.9697, "polarization": "HOR", "status": "Operational", "frequency": 682.0, "channel": 47, "maxERP": 2.0, "antennaHeight_AGL": 60.0, "path": "Land"}, {"recordNumber": 50, "countryCode": "ET", "siteName": "FILTU", "programme": "PAL", "latitude": 40.5241, "longtiude": 5.1366, "polarization": "HOR", "status": "Operational", "frequency": 634.0, "channel": 41, "maxERP": 0.5, "antennaHeight_AGL": 80.0, "path": "Land"}, {"recordNumber": 51, "countryCode": "ET", "siteName": "ADIGRAT", "programme": "PAL", "latitude": 39.4155, "longtiude": 14.2475, "polarization": "HOR", "status": "Operational", "frequency": 714.0, "channel": 51, "maxERP": 3.0, "antennaHeight_AGL": 100.0, "path": "Land"}, {"recordNumber": 52, "countryCode": "ET", "siteName": "GINIR", "programme": "PAL", "latitude": 40.7141, "longtiude": 7.1494, "polarization": "HOR", "status": "Operational", "frequency": 666.0, "channel": 45, "maxERP": 3.0, "antennaHeight_AGL": 100.0, "path": "Land"}, {"recordNumber": 53, "countryCode": "ET", "siteName": "DELLOMENA", "programme": "PAL", "latitude": 39.8452, "longtiude": 6.4136, "polarization": "HOR", "status": "Operational", "frequency": 626.0, "channel": 40, "maxERP": 2.0, "antennaHeight_AGL": 60.0, "path": "Land"}, {"recordNumber": 54, "countryCode": "ET", "siteName": "FIK", "programme": "PAL", "latitude": 42.2994, "longtiude": 8.1319, "polarization": "HOR", "status": "Operational", "frequency": 714.0, "channel": 51, "maxERP": 2.0, "antennaHeight_AGL": 60.0, "path": "Land"}, {"recordNumber": 55, "countryCode": "ET", "siteName": "MAJI", "programme": "PAL", "latitude": 35.5963, "longtiude": 6.1502, "polarization": "HOR", "status": "Operational", "frequency": 594.0, "channel": 36, "maxERP": 2.0, "antennaHeight_AGL": 80.0, "path": "Land"}, {"recordNumber": 56, "countryCode": "ET", "siteName": "GUBA", "programme": "PAL", "latitude": 35.3047, "longtiude": 11.2525, "polarization": "HOR", "status": "Operational", "frequency": 490.0, "channel": 23, "maxERP": 3.0, "antennaHeight_AGL": 60.0, "path": "Land"}, {"recordNumber": 57, "countryCode": "ET", "siteName": "YABELLO", "programme": "PAL", "latitude": 38.0863, "longtiude": 4.8872, "polarization": "HOR", "status": "Operational", "frequency": 706.0, "channel": 50, "maxERP": 1.0, "antennaHeight_AGL": 60.0, "path": "Land"}, {"recordNumber": 58, "countryCode": "ET", "siteName": "SAMRE", "programme": "PAL", "latitude": 39.2147, "longtiude": 13.1791, "polarization": "HOR", "status": "Operational", "frequency": 682.0, "channel": 47, "maxERP": 3.0, "antennaHeight_AGL": 80.0, "path": "Land"}, {"recordNumber": 59, "countryCode": "ET", "siteName": "BellaGhimbiBILLA", "programme": "PAL", "latitude": 35.5772, "longtiude": 7.3419, "polarization": "HOR", "status": "Operational", "frequency": 698.0, "channel": 24, "maxERP": 3.0, "antennaHeight_AGL": 80.0, "path": "Land"}]